[
    {
        "name": "Keelung",
        "latlng": {
            "lat": 25.1303462,
            "lng": 121.7439138
        }
    },
    {
        "name": "Changhua",
        "latlng": {
            "lat": 24.0793951,
            "lng": 120.5323783
        }
    },
    {
        "name": "Taipei",
        "latlng": {
            "lat": 25.0375465,
            "lng": 121.562244
        }
    },
    {
        "name": "New Taipei",
        "latlng": {
            "lat": 25.0123073,
            "lng": 121.4632665
        }
    },
    {
        "name": "連江縣",
        "latlng": {
            "lat": 26.1572524,
            "lng": 119.9482926
        }
    },
    {
        "name": "Yilan",
        "latlng": {
            "lat": 24.7305437,
            "lng": 121.7619899
        }
    },
    {
        "name": "新竹市",
        "latlng": {
            "lat": 24.7929419,
            "lng": 120.9493054
        }
    },
    {
        "name": "Hsinchu",
        "latlng": {
            "lat": 24.8268841,
            "lng": 121.010715
        }
    },
    {
        "name": "桃園市",
        "latlng": {
            "lat": 24.9931617,
            "lng": 121.2988176
        }
    },
    {
        "name": "Miaoli",
        "latlng": {
            "lat": 24.5648599,
            "lng": 120.8185503
        }
    },
    {
        "name": "Taichung",
        "latlng": {
            "lat": 24.142672,
            "lng": 120.6864039
        }
    },
    {
        "name": "Nantou",
        "latlng": {
            "lat": 23.9026841,
            "lng": 120.6883151
        }
    },
    {
        "name": "Taitung",
        "latlng": {
            "lat": 22.7570728,
            "lng": 121.1152767
        }
    },
    {
        "name": "Chiayi",
        "latlng": {
            "lat": 23.4586677,
            "lng": 120.2907749
        }
    },
    {
        "name": "Yunlin",
        "latlng": {
            "lat": 23.6992351,
            "lng": 120.5241337
        }
    },
    {
        "name": "Tainan",
        "latlng": {
            "lat": 22.9922336,
            "lng": 120.18299
        }
    },
    {
        "name": "Kaohsiung",
        "latlng": {
            "lat": 22.62025,
            "lng": 120.3069565
        }
    },
    {
        "name": "澎湖縣",
        "latlng": {
            "lat": 23.568495,
            "lng": 119.5668485
        }
    },
    {
        "name": "金門縣",
        "latlng": {
            "lat": 24.4371954,
            "lng": 118.3171488
        }
    },
    {
        "name": "屏東縣",
        "latlng": {
            "lat": 22.6830408,
            "lng": 120.4857744
        }
    },
    {
        "name": "Pingtungn",
        "latlng": {
            "lat": 22.7539301,
            "lng": 121.1429397
        }
    },
    {
        "name": "Hualien",
        "latlng": {
            "lat": 23.9848788,
            "lng": 121.5721311
        }
    }
]
